City_ID,City,Lat,Lng,Max Temp,Humidity,Cloudiness,Wind Speed,Country,Date
0,twin falls,42.3505,-114.6445,49.89,76,0,10.36,US,1706662114
1,takoradi,4.8845,-1.7554,79.45,83,14,6.78,GH,1706662115
2,papatowai,-46.5619,169.4708,65.62,58,100,7.31,NZ,1706662115
3,lorengau,-2.0226,147.2712,83.39,81,100,10.85,PG,1706662115
4,college,64.8569,-147.8028,-14.85,64,75,0.0,US,1706662115
5,nova vicosa,-17.8919,-39.3719,77.86,90,100,10.98,BR,1706662115
6,egilsstadir,65.2653,-14.3948,30.11,69,75,9.22,IS,1706662115
7,edinburgh of the seven seas,-37.0676,-12.3116,57.15,58,46,4.38,SH,1706662116
8,bethel,41.3712,-73.414,34.65,76,100,6.91,US,1706662013
9,gokarna,14.55,74.3167,72.01,70,13,4.54,IN,1706662116
10,waitangi,-43.9535,-176.5597,63.82,97,100,5.01,NZ,1706662116
11,mahina,-17.5065,-149.489,85.75,74,99,5.77,PF,1706662116
12,tvoroyri,61.5556,-6.8111,45.75,92,100,35.46,FO,1706662117
13,adamstown,-25.066,-130.1015,76.8,76,100,27.42,PN,1706662117
14,iqaluit,63.7506,-68.5145,-7.87,71,100,6.91,CA,1706662117
15,port-aux-francais,-49.35,70.2167,38.98,73,84,31.99,TF,1706662117
16,hammerfest,70.6634,23.6821,39.65,75,20,36.82,NO,1706661932
17,bamboo flat,11.7,92.7167,78.89,89,40,2.3,IN,1706662117
18,kone,-21.0595,164.8658,83.25,70,87,3.85,NC,1706662118
19,longyearbyen,78.2186,15.6401,22.84,68,75,11.5,SJ,1706662118
20,bengkulu,-3.8004,102.2655,78.06,86,100,3.22,ID,1706662118
21,dolores hidalgo cuna de la independencia nacional,21.1561,-100.9308,66.87,30,100,6.78,MX,1706661953
22,abdulino,53.7,53.6667,28.09,90,100,18.75,RU,1706662118
23,ta`u,-14.2336,-169.5144,84.31,75,64,8.32,AS,1706662118
24,lihue,21.9789,-159.3672,76.73,83,75,6.91,US,1706662119
25,fort bragg,35.139,-79.006,47.8,72,100,0.0,US,1706662119
26,ribeira grande,38.5167,-28.7,57.78,88,83,5.99,PT,1706662119
27,tsiombe,-25.3,45.4833,73.9,82,70,13.96,MG,1706662119
28,tazovsky,67.4667,78.7,-5.73,92,90,14.81,RU,1706662119
29,hawera,-39.5917,174.2833,70.74,63,42,12.17,NZ,1706662119
30,barra de santo antonio,-9.4047,-35.5072,76.28,79,0,7.31,BR,1706662120
31,palmer,42.1584,-72.3287,29.8,76,100,3.0,US,1706662120
32,christchurch,-43.5333,172.6333,73.47,61,0,24.16,NZ,1706662012
33,hovd,48.0056,91.6419,-6.65,97,100,1.28,MN,1706662120
34,whitehorse,60.7161,-135.0538,34.57,51,20,14.97,CA,1706662120
35,utrik,11.2278,169.8474,79.05,75,100,17.94,MH,1706662120
36,badger,64.8,-147.5333,-14.93,64,75,0.0,US,1706662120
37,lebu,-37.6167,-73.65,59.47,80,0,12.91,CL,1706662121
38,grytviken,-54.2811,-36.5092,38.37,81,22,10.6,GS,1706662121
39,kapa'a,22.0752,-159.319,77.47,74,75,6.91,US,1706662121
40,blackmans bay,-43.0167,147.3167,68.74,43,87,1.99,AU,1706662121
41,wayne,42.2506,-83.2833,35.62,95,100,3.44,US,1706662121
42,urangan,-25.3,152.9,84.2,80,100,11.01,AU,1706662122
43,juan de ayolas,-27.4,-56.9,77.81,58,0,8.14,PY,1706662122
44,kununurra,-15.7667,128.7333,80.58,83,40,5.75,AU,1706662122
45,hinton,53.4001,-117.5857,31.12,92,45,4.61,CA,1706662122
46,avarua,-21.2078,-159.775,84.25,70,75,5.75,CK,1706662122
47,hun,29.1268,15.9477,46.26,82,6,6.98,LY,1706662122
48,isafjordur,66.0755,-23.124,26.1,80,62,10.45,IS,1706662123
49,emerald,-23.5333,148.1667,83.34,83,93,5.93,AU,1706661934
50,bredasdorp,-34.5322,20.0403,65.55,95,58,4.97,ZA,1706662123
51,lluta,-16.0147,-72.0142,55.49,68,100,1.25,PE,1706662123
52,okeechobee,27.2439,-80.8298,63.0,69,0,0.0,US,1706662095
53,ongjin,37.9347,125.3619,37.26,47,13,3.15,KP,1706662123
54,margaret river,-33.95,115.0667,76.82,47,0,5.7,AU,1706662124
55,el fasher,13.6279,25.3494,58.98,25,5,7.27,SD,1706662124
56,codrington,-38.2667,141.9667,67.39,58,0,12.82,AU,1706662124
57,olonkinbyen,70.9221,-8.7187,24.84,78,100,12.8,SJ,1706662124
58,fort portal,0.6617,30.2748,66.79,51,100,1.63,UG,1706662124
59,ilulissat,69.2167,-51.1,-11.18,49,26,6.91,GL,1706662124
60,mulanje,-16.0316,35.5,65.34,82,4,3.78,MW,1706662125
61,keflavik,64.0049,-22.5624,30.11,93,20,27.63,IS,1706662125
62,waat,51.1454,6.4958,45.9,91,100,3.44,DE,1706662125
63,jamestown,42.097,-79.2353,35.19,90,100,5.75,US,1706661977
64,carnarvon,-24.8667,113.6333,90.16,47,0,12.26,AU,1706662125
65,west island,-12.1568,96.8225,82.38,74,41,6.91,CC,1706662125
66,iskateley,67.6803,53.1512,21.02,92,12,11.01,RU,1706662125
67,mlandizi,-6.7,38.7333,74.77,98,97,3.15,TZ,1706662126
68,anadyr,64.75,177.4833,-19.7,76,0,6.71,RU,1706662126
69,puerto ayora,-0.7393,-90.3518,77.86,86,90,7.81,EC,1706662126
70,soio,-6.1349,12.3689,79.43,86,100,3.83,AO,1706662126
71,kristiansund,63.1115,7.732,43.45,42,100,14.97,NO,1706662126
72,mahibadhoo,3.7833,72.9667,80.08,80,47,10.89,MV,1706662127
73,hamilton,39.1834,-84.5333,36.93,95,100,3.44,US,1706662127
74,sitka,57.0531,-135.33,37.29,65,100,10.36,US,1706662127
75,namdrik,5.5994,168.1028,80.29,82,100,28.68,MH,1706662127
76,thohoyandou,-22.9456,30.485,65.8,97,18,7.65,ZA,1706662127
77,berdigestyakh,62.0989,126.6992,-14.6,98,100,4.38,RU,1706662127
78,maracaibo,10.6317,-71.6406,80.49,77,11,13.62,VE,1706662128
79,nuku'alofa,-21.1333,-175.2,82.74,89,75,5.75,TO,1706662128
80,geraldton,-28.7667,114.6,97.21,24,0,3.44,AU,1706661846
81,badulla,6.9895,81.0557,67.62,92,37,2.55,LK,1706662128
82,tofol,5.3248,163.0078,83.98,79,100,17.27,FM,1706662128
83,puerto natales,-51.7236,-72.4875,46.85,85,18,3.51,CL,1706662128
84,nemuro,43.3236,145.575,27.97,65,100,5.41,JP,1706662129
85,laojunmiao,39.8333,97.7333,19.51,39,100,7.78,CN,1706662129
86,petropavlovsk-kamchatsky,53.0452,158.6483,3.79,56,40,11.18,RU,1706662129
87,formosa do rio preto,-11.0483,-45.1931,72.07,85,87,0.07,BR,1706662129
88,porvoo,60.3923,25.6651,33.51,97,100,7.63,FI,1706662129
89,bonthe,7.5264,-12.505,78.49,88,64,6.04,SL,1706662130
90,hadibu,12.65,54.0333,74.77,77,74,4.07,YE,1706662130
91,colonia,50.9333,6.95,46.96,80,100,8.05,DE,1706662049
92,andkhoy,36.9529,65.1238,37.08,70,6,6.89,AF,1706662130
93,plastun,44.7561,136.2939,20.7,63,100,1.63,RU,1706662130
94,saldanha,-33.0117,17.9442,62.65,92,88,6.02,ZA,1706662130
95,khovd,48.0056,91.6419,-6.65,97,100,1.28,MN,1706662130
96,kodiak,57.79,-152.4072,13.51,41,0,9.22,US,1706661841
97,vad,55.5301,44.2114,9.09,100,73,4.88,RU,1706662131
98,ushuaia,-54.8,-68.3,58.62,67,40,11.5,AR,1706662031
99,zhanaozen,43.3,52.8,24.22,76,65,9.62,KZ,1706662131
100,tiksi,71.6872,128.8694,-16.76,98,51,3.94,RU,1706662131
101,ceeldheer,3.8488,47.1806,75.34,80,100,13.67,SO,1706662131
102,honfleur,49.4198,0.2329,46.35,96,75,4.61,FR,1706662131
103,aasiaat,68.7098,-52.8699,-22.16,96,56,12.71,GL,1706662132
104,las heras,-46.5419,-68.9359,66.83,44,100,27.38,AR,1706662132
105,tateyama,34.9833,139.8667,53.1,62,6,14.63,JP,1706662132
106,sandnessjoen,66.0217,12.6316,37.92,97,100,38.9,NO,1706662132
107,port lincoln,-34.7333,135.8667,66.54,60,0,12.93,AU,1706662132
108,east gwillimbury,44.1334,-79.4163,34.56,89,100,7.87,CA,1706662132
109,chegdomyn,51.1167,133.0167,-17.48,96,100,1.61,RU,1706662133
110,nar'yan-mar,67.6713,53.087,21.11,92,17,11.01,RU,1706662133
111,belo oriente,-19.22,-42.4836,74.95,95,100,2.86,BR,1706662133
112,weno,7.4515,151.8468,84.15,70,100,11.5,FM,1706662133
113,ilebo,-4.3167,20.5833,71.92,99,100,1.72,CD,1706662133
114,rio brilhante,-21.8019,-54.5464,82.35,43,89,3.89,BR,1706662133
115,bilibino,68.0546,166.4372,-27.96,98,100,0.98,RU,1706662134
116,alice springs,-23.7,133.8833,94.55,12,84,23.02,AU,1706662134
117,arraial do cabo,-22.9661,-42.0278,76.96,94,40,2.3,BR,1706662134
118,udachny,66.4167,112.4,-16.87,100,98,2.33,RU,1706662134
119,vadso,70.0744,29.7487,39.36,65,100,19.57,NO,1706662134
120,karoi,-16.8099,29.6925,64.17,93,99,3.31,ZW,1706662135
121,ust-nera,64.5667,143.2,-23.96,99,100,4.41,RU,1706662135
122,ishigaki,24.3448,124.1572,73.53,78,20,9.22,JP,1706662135
123,port-vila,-17.7338,168.3219,85.6,70,75,5.75,VU,1706662135
124,macgregor,49.9661,-98.7794,38.75,81,0,5.01,CA,1706662135
125,remire-montjoly,4.9167,-52.2667,80.64,89,75,4.61,GF,1706662135
126,wanaraja,-7.1749,107.9808,72.21,92,98,2.06,ID,1706662136
127,ringkobing,56.0901,8.244,40.01,81,10,20.94,DK,1706662136
128,mhangura,-16.8939,30.1683,64.85,88,100,2.48,ZW,1706662136
129,maloye ganyushkino,46.6,49.2667,27.19,91,100,15.08,KZ,1706662136
130,fale old settlement,-9.3852,-171.2468,85.32,68,45,4.23,TK,1706662136
131,chubek,37.6137,69.7061,39.27,83,100,7.34,TJ,1706662136
132,albany,42.6001,-73.9662,31.46,84,100,5.7,US,1706662137
133,dubbo,-32.25,148.6167,87.93,58,75,6.91,AU,1706662137
134,east london,-33.0153,27.9116,71.71,85,100,11.25,ZA,1706662137
135,fortuna,40.5982,-124.1573,65.66,58,40,27.63,US,1706662137
136,dudinka,69.4058,86.1778,1.62,84,100,21.0,RU,1706662137
137,klyuchi,52.2667,79.1667,5.95,90,100,5.77,RU,1706662137
138,dryden,49.7833,-92.7503,30.49,93,100,8.05,CA,1706662137
139,manhumirim,-20.3578,-41.9581,71.31,90,100,1.39,BR,1706662138
140,saint-joseph,-21.3667,55.6167,77.38,83,62,9.73,RE,1706662138
141,thompson,55.7435,-97.8558,33.96,93,75,3.44,CA,1706661892
142,tura,25.5198,90.2201,55.58,53,0,2.95,IN,1706662138
143,zaozersk,69.4005,32.4476,35.11,81,100,33.96,RU,1706662138
144,salekhard,66.53,66.6019,2.8,96,100,7.05,RU,1706662138
145,westport,41.1415,-73.3579,35.62,73,100,10.36,US,1706661994
146,yichun,47.7,128.9,-7.94,93,100,2.42,CN,1706662139
147,kruisfontein,-34.0033,24.7314,65.88,84,100,5.64,ZA,1706662139
148,togur,58.3631,82.8265,4.68,96,100,8.88,RU,1706662139
149,obudu,6.6674,9.1716,77.99,23,57,3.91,NG,1706662139
150,taupo,-38.6833,176.0833,74.34,47,2,3.15,NZ,1706661968
151,nantucket,41.2835,-70.0995,30.31,69,100,9.22,US,1706662140
152,buala,-8.145,159.5921,80.96,84,100,10.04,SB,1706662140
153,atafu village,-8.5421,-172.5159,83.88,75,12,7.05,TK,1706662140
154,aix-les-bains,45.6834,5.9224,41.79,81,48,2.3,FR,1706662140
155,tagaw-bay,35.6994,66.0616,24.64,95,100,3.8,AF,1706662140
156,acarau,-2.8856,-40.12,80.62,82,4,11.54,BR,1706662140
157,bullsbrook,-31.6667,116.0,92.89,24,0,8.05,AU,1706662140
158,belyy yar,53.6039,91.3903,-14.91,84,20,0.0,RU,1706662141
159,taghazout,30.5426,-9.7112,57.97,33,100,7.11,MA,1706662141
160,hawaiian paradise park,19.5933,-154.9731,83.71,74,20,8.05,US,1706662141
161,pandan,14.0453,124.1694,79.77,73,97,17.67,PH,1706662141
162,trevelin,-43.0858,-71.4639,67.48,62,100,5.12,AR,1706662141
163,punta arenas,-53.15,-70.9167,53.71,62,20,27.63,CL,1706662142
164,nuuk,64.1835,-51.7216,14.61,44,75,27.63,GL,1706662142
165,mukalla,14.5425,49.1242,72.07,80,97,2.66,YE,1706662142
166,qaqortoq,60.7167,-46.0333,4.06,67,100,10.78,GL,1706662142
167,port mathurin,-19.6833,63.4167,81.52,80,100,19.71,MU,1706662142
168,zeya,53.75,127.2667,-12.39,91,100,1.14,RU,1706662143
169,dapa,9.7594,126.0531,80.04,83,100,14.07,PH,1706662143
170,uturoa,-16.7333,-151.4333,84.31,73,100,11.21,PF,1706662143
171,ciudad lazaro cardenas,17.9583,-102.2,78.03,73,100,2.68,MX,1706662143
172,metlili chaamba,32.2667,3.6333,49.14,66,0,6.91,DZ,1706662143
173,santa cruz,-17.8,-63.1667,81.86,83,40,9.22,BO,1706661905
174,labasa,-16.4167,179.3833,84.87,78,97,7.78,FJ,1706662144
175,al musayyib,32.7833,44.2825,49.87,61,0,7.65,IQ,1706662144
176,pereslavl'-zalesskiy,56.7393,38.8563,23.04,99,100,4.47,RU,1706662144
177,san antonio de pale,-1.4014,5.6325,82.24,79,100,5.03,GQ,1706662144
178,coahuayana de hidalgo,18.7,-103.6583,76.37,85,100,1.68,MX,1706662144
179,panorama,40.5878,23.0315,37.45,51,0,5.01,GR,1706662144
180,cabo san lucas,22.8909,-109.9124,78.1,53,100,12.66,MX,1706662145
181,st. john's,47.5649,-52.7093,23.79,82,100,18.41,CA,1706662003
182,vila velha,-20.3297,-40.2925,80.55,94,75,6.91,BR,1706662145
183,gadani,25.1185,66.7299,68.22,83,100,7.38,PK,1706662145
184,vilyuchinsk,52.9306,158.4028,5.27,63,100,5.99,RU,1706662145
185,happy valley-goose bay,53.3168,-60.3315,3.51,51,20,5.75,CA,1706662146
186,vershino-darasunskiy,52.35,115.5167,-17.99,87,86,3.74,RU,1706662146
187,luganville,-15.5333,167.1667,85.15,72,99,5.44,VU,1706662146
188,yellowknife,62.456,-114.3525,13.41,99,100,9.22,CA,1706662049
189,mata-utu,-13.2816,-176.1745,85.41,78,100,14.99,WF,1706662146
190,kharp,66.8014,65.8081,2.86,98,100,3.49,RU,1706662147
191,longboat key,27.4125,-82.659,60.01,74,0,4.61,US,1706662147
192,ambovombe,-25.1667,46.0833,73.33,84,94,15.26,MG,1706662147
193,kingscliff,-28.2667,153.5667,85.73,65,100,17.27,AU,1706662147
194,tromso,69.6496,18.957,35.62,87,100,32.21,NO,1706662148
195,susangerd,31.5608,48.1831,58.15,35,0,7.81,IR,1706662035
196,huesca,42.1362,-0.4087,36.28,93,0,3.44,ES,1706662148
197,colonel hill,22.7667,-74.2167,73.35,53,99,6.73,BS,1706662148
198,nizhnesortymskiy,62.4397,71.7603,-7.06,99,96,12.68,RU,1706662148
199,shanor-northvue,40.9105,-79.9156,37.47,90,40,0.0,US,1706662148
200,soure,-0.7167,-48.5233,79.39,83,83,8.95,BR,1706662149
201,lubango,-14.9172,13.4925,64.26,88,20,5.75,AO,1706662149
202,vernon,50.2581,-119.2691,46.62,92,100,3.0,CA,1706662149
203,mokopane,-24.1944,29.0097,64.78,73,6,4.83,ZA,1706661980
204,tuy hoa,13.0833,109.3,72.45,88,98,3.51,VN,1706662149
205,liwale,-9.7667,37.9333,69.98,99,100,2.71,TZ,1706662150
206,boulsa,12.6675,-0.5758,72.21,18,1,9.6,BF,1706662150
207,guerrero negro,27.9769,-114.0611,67.19,52,0,10.22,MX,1706662150
208,thurso,58.5927,-3.5259,43.86,72,100,27.13,GB,1706662150
209,tralee,52.2704,-9.7026,39.88,92,100,7.67,IE,1706662150
210,battle ground,45.7809,-122.5334,56.88,86,100,3.0,US,1706662151
211,invercargill,-46.4,168.35,64.02,75,92,13.0,NZ,1706662151
212,alesund,62.4723,6.1549,44.1,65,100,27.63,NO,1706662151
213,argo,37.6333,22.7333,41.5,81,92,24.27,GR,1706662151
214,crane,31.3974,-102.3501,61.32,35,66,6.06,US,1706662151
215,kendari,-3.945,122.4989,83.77,74,92,3.13,ID,1706662151
216,wailua homesteads,22.0669,-159.378,76.12,77,75,6.91,US,1706662152
217,ouadda,8.0777,22.4007,68.95,23,100,6.02,CF,1706662152
218,carutapera,-1.195,-46.02,78.85,87,51,6.33,BR,1706662152
219,prado,-17.3411,-39.2208,78.13,87,100,10.92,BR,1706662152
220,chinde,26.8418,88.0763,42.94,60,2,5.23,NP,1706662152
221,umba,66.6871,34.3429,31.06,84,41,13.8,RU,1706662153
222,bayeux,-7.125,-34.9322,79.43,89,0,4.61,BR,1706662153
223,hotan,37.0997,79.9269,28.72,54,85,4.54,CN,1706662153
224,georgetown,5.4112,100.3354,80.94,79,20,6.91,MY,1706662153
225,zemio,5.0314,25.1361,70.29,37,100,3.13,CF,1706662153
226,zelenogorsk,56.1147,94.5861,-21.23,100,93,1.43,RU,1706662153
227,tolanaro,-25.0319,46.9987,75.27,88,20,6.91,MG,1706662154
228,piacabucu,-10.4056,-36.4344,78.06,78,0,7.56,BR,1706662154
229,aripuana,-9.1667,-60.6333,79.5,76,100,0.74,BR,1706662154
230,port augusta,-32.5,137.7667,73.31,34,0,18.9,AU,1706662154
231,mount isa,-20.7333,139.5,78.57,89,100,21.85,AU,1706662154
232,howrah,22.5892,88.3103,66.2,94,75,5.75,IN,1706662154
233,mili,6.0815,171.735,80.67,83,100,11.16,MH,1706662155
234,dunedin,-45.8742,170.5036,78.08,90,8,5.99,NZ,1706662155
235,charters towers,-20.1,146.2667,93.13,47,78,5.39,AU,1706662155
236,leava,-14.3,-178.1667,84.81,84,82,17.9,WF,1706662155
237,alibag,18.6411,72.8792,73.47,70,96,7.72,IN,1706662155
238,lukolela,-1.0605,17.1821,75.13,67,100,2.71,CD,1706662156
239,i-n-salah,27.1935,2.4607,59.54,34,0,22.1,DZ,1706662156
240,hermanus,-34.4187,19.2345,68.81,83,100,9.44,ZA,1706662156
241,la ronge,55.1001,-105.2842,46.65,61,20,8.05,CA,1706662156
242,saint-philippe,-21.3585,55.7679,78.39,84,47,8.7,RE,1706662156
243,roven'ky,48.0833,39.3776,27.03,88,91,5.3,UA,1706662157
244,kerikeri,-35.2268,173.9474,79.3,54,27,8.39,NZ,1706662157
245,kushiro,42.975,144.3747,23.95,74,75,2.3,JP,1706662157
246,bitkine,11.9801,18.2138,68.9,19,2,9.89,TD,1706662157
247,lincoln,40.8,-96.667,43.27,75,0,3.44,US,1706661936
248,shetpe,44.1667,52.1167,25.74,73,94,13.91,KZ,1706662158
249,constantia,44.1833,28.65,23.68,79,40,7.9,RO,1706662158
250,gevrai,19.2667,75.75,67.64,40,57,4.29,IN,1706662158
251,andergrove,-21.0833,149.1833,92.64,70,76,2.08,AU,1706662158
252,newman,37.3138,-121.0208,71.83,75,74,1.99,US,1706662158
253,northam,51.0333,-4.2167,35.38,90,80,6.69,GB,1706662158
254,massawa,15.6097,39.45,75.72,71,100,8.75,ER,1706662159
255,meadow lake,34.8014,-106.5436,56.68,34,87,2.82,US,1706662159
256,peniche,39.3558,-9.3811,59.94,85,100,9.04,PT,1706662159
257,trashi yangtse,27.6116,91.498,37.42,89,96,3.44,BT,1706662159
258,kingston,17.997,-76.7936,81.55,79,75,4.61,JM,1706662159
259,kavaratti,10.5669,72.642,81.57,68,33,8.34,IN,1706662160
260,alto barinas,8.5931,-70.2261,85.6,37,62,0.36,VE,1706662160
261,lerwick,60.1545,-1.1494,46.4,81,100,34.02,GB,1706662160
262,camapua,-19.5314,-54.0439,74.7,71,13,2.48,BR,1706662160
263,diebougou,10.9667,-3.25,76.37,18,100,4.36,BF,1706662160
264,idfu,24.9803,32.8747,48.99,42,0,7.18,EG,1706662160
265,taoudenni,22.6783,-3.9836,65.57,24,0,14.41,ML,1706662161
266,yoichi,43.2039,140.7703,32.5,67,100,5.55,JP,1706662161
267,west bay,19.3667,-81.4167,73.47,56,75,6.91,KY,1706662161
268,enewetak,11.3474,162.3373,79.79,71,100,20.07,MH,1706662161
269,farafangana,-22.8167,47.8333,73.71,85,100,7.76,MG,1706662161
270,estes park,40.3772,-105.5217,46.26,57,9,7.16,US,1706662162
271,mount gambier,-37.8333,140.7667,70.3,48,0,9.04,AU,1706661966
272,al qusiyah,27.4402,30.8184,44.87,49,0,6.35,EG,1706662162
273,ekibastuz,51.6667,75.3667,11.91,88,100,7.76,KZ,1706662162
274,magadan,59.5667,150.8,-12.48,79,5,5.57,RU,1706662162
275,franklin,39.9667,-83.0166,36.43,97,100,4.61,US,1706662162
276,butzbach,50.4339,8.6712,45.34,92,55,4.43,DE,1706662163
277,hailar,49.2,119.7,-32.01,100,91,4.56,CN,1706662163
278,banyo,6.75,11.8167,67.73,31,90,2.95,CM,1706662163
279,roanoke,37.271,-79.9414,43.61,72,100,6.91,US,1706662163
280,si satchanalai,17.5169,99.7598,67.78,88,23,2.75,TH,1706662163
281,sao luis,-2.5297,-44.3028,82.6,89,0,10.36,BR,1706662164
282,kourou,5.1552,-52.6478,80.65,89,4,7.38,GF,1706662164
283,lazaro cardenas,17.9583,-102.2,78.03,73,100,2.68,MX,1706662164
284,susuman,62.7833,148.1667,-33.02,100,100,1.01,RU,1706662164
285,mirnyy,62.5353,113.9611,-17.77,75,91,3.38,RU,1706662164
286,talas,38.6908,35.5538,27.27,64,0,9.22,TR,1706662164
287,inhambane,-23.865,35.3833,74.19,87,0,9.48,MZ,1706662165
288,duba-yurt,43.0372,45.7319,7.77,57,21,3.13,RU,1706662165
289,macau,22.2006,113.5461,66.7,94,40,6.91,MO,1706662165
290,arys,42.4252,68.795,28.22,94,100,13.44,KZ,1706662165
291,mahajanga,-15.7167,46.3167,80.62,83,20,4.61,MG,1706662165
292,taksimo,56.3444,114.8794,-25.47,91,30,1.63,RU,1706662166
293,kismayo,-0.3582,42.5454,79.5,84,100,15.32,SO,1706662166
294,scottburgh,-30.2867,30.7532,72.3,90,66,7.87,ZA,1706662166
295,goz beida,13.95,20.55,65.95,22,0,8.34,TD,1706662166
296,bochum,51.4833,7.2167,45.5,83,100,3.0,DE,1706662166
297,askoy,60.4092,5.226,36.77,100,75,11.5,NO,1706662167
298,stanley,54.868,-1.6985,37.78,87,0,8.05,GB,1706662167
299,ippy,6.2679,21.2247,76.23,26,100,4.99,CF,1706662167
300,chato,-2.6378,31.7669,65.73,90,100,4.94,TZ,1706662167
301,letterkenny,54.95,-7.7333,43.36,79,100,14.25,IE,1706662168
302,bereznik,62.8551,42.7072,26.85,91,32,6.93,RU,1706662168
303,pahrump,36.2083,-115.9839,69.85,33,0,2.35,US,1706662151
304,korla,41.7597,86.1469,22.57,68,78,10.8,CN,1706662168
305,pokhara,28.2333,83.9833,49.15,45,68,5.75,NP,1706662168
306,mari-turek,56.7895,49.6235,21.33,93,11,12.33,RU,1706662168
307,hilton head island,32.2163,-80.7526,53.98,75,0,8.05,US,1706662169
308,lakatoro,-16.0999,167.4164,83.89,75,100,4.68,VU,1706662169
309,ebaye,8.7748,167.7392,82.42,74,0,18.41,MH,1706662169
310,cockburn town,21.4612,-71.1419,75.33,57,1,9.24,TC,1706662169
311,puerto colombia,10.9878,-74.9547,78.89,84,89,24.7,CO,1706661957
312,bandarbeyla,9.4942,50.8122,75.99,70,100,9.06,SO,1706662169
313,stavyshche,50.4,29.5333,29.55,70,97,7.52,UA,1706662170
314,nazyvayevsk,55.5698,71.3529,-7.2,100,98,5.59,RU,1706662170
315,olbia,40.9214,9.4856,35.65,93,0,3.44,IT,1706662170
316,vinogradovo,56.9333,37.55,20.91,100,100,2.53,RU,1706662170
317,fuerte olimpo,-21.0415,-57.8738,85.68,49,80,7.2,PY,1706662170
318,forster,-32.1667,152.5167,83.28,72,19,10.04,AU,1706662170
319,hillsboro,45.5229,-122.9898,56.43,80,100,1.99,US,1706662113
320,pisco,-13.7,-76.2167,75.25,78,0,19.57,PE,1706662171
321,port saint john's,-31.6229,29.5448,72.46,93,96,6.29,ZA,1706662171
322,bakchar,57.0186,82.0711,7.5,95,100,6.06,RU,1706662171
323,camacupa,-12.0167,17.4833,62.55,96,100,1.3,AO,1706662171
324,talnakh,69.4865,88.3972,1.2,80,100,10.45,RU,1706662172
325,sittwe,20.15,92.9,61.56,60,3,5.88,MM,1706662172
326,mormugao,15.4,73.8,71.2,69,26,3.67,IN,1706662172
327,belmonte,-15.8631,-38.8828,78.8,84,56,9.98,BR,1706662172
328,akureyri,65.6835,-18.0878,26.53,68,75,12.66,IS,1706662172
329,manokwari,-0.8667,134.0833,82.51,75,90,3.42,ID,1706662173
330,beipiao,41.7919,120.7792,6.91,58,0,15.61,CN,1706662173
331,yorkton,51.2167,-102.4677,40.84,75,0,13.8,CA,1706661902
332,san rafael,-34.6177,-68.3301,79.88,44,53,12.44,AR,1706662138
333,mejit,10.2753,170.8646,79.57,80,100,19.73,MH,1706662173
334,yerofey pavlovich,53.9667,121.9667,-11.38,89,99,2.8,RU,1706662173
335,grabow,53.2833,11.5667,46.92,86,100,14.94,DE,1706662173
336,makary,12.5717,14.4666,70.61,35,0,16.31,CM,1706662174
337,chonchi,-42.6128,-73.8092,65.41,87,100,2.66,CL,1706662174
338,kashiwazaki,37.3667,138.55,44.13,59,100,5.86,JP,1706662174
339,taulaga,-11.0553,-171.0883,84.7,63,13,2.57,AS,1706662174
340,namtsy,62.7161,129.6658,-34.33,99,95,0.29,RU,1706662174
341,ujae,8.9322,165.7642,80.65,76,100,23.2,MH,1706662174
342,berezovyy,51.6667,135.7,-4.34,72,17,0.92,RU,1706662175
343,east ballina,-28.8667,153.5833,82.8,62,79,10.09,AU,1706662175
344,port elizabeth,-33.918,25.5701,71.31,88,0,2.3,ZA,1706662175
345,partur,19.6,76.2167,66.79,44,26,4.0,IN,1706662175
346,mamuju,-2.6748,118.8885,83.79,73,74,8.52,ID,1706662175
347,hohhot,40.8106,111.6522,-1.91,78,0,8.95,CN,1706662175
348,tazacorte,28.629,-17.9293,65.16,28,0,8.99,ES,1706662175
349,kochenevo,55.0218,82.202,-2.63,99,95,4.68,RU,1706662176
350,alexandria,31.2156,29.9553,43.34,61,45,11.36,EG,1706662176
351,ancud,-41.8697,-73.8203,58.24,93,100,4.85,CL,1706662176
352,poirino,44.9208,7.8469,44.91,49,10,5.75,IT,1706662176
353,la mira,18.035,-102.3266,76.96,75,100,2.06,MX,1706662176
354,debre birhan,9.6833,39.5333,52.84,82,97,5.53,ET,1706662176
355,flying fish cove,-10.4217,105.6791,78.48,94,100,1.14,CX,1706662177
356,port blair,11.6667,92.75,78.84,89,40,2.3,IN,1706662177
357,clodomira,-27.5744,-64.1311,87.58,26,0,9.86,AR,1706662177
358,ulladulla,-35.35,150.4667,71.76,92,100,9.46,AU,1706662177
359,coquimbo,-29.9533,-71.3436,64.13,88,40,8.05,CL,1706661909
360,sao sebastiao do paraiso,-20.9169,-46.9914,70.41,41,100,1.32,BR,1706662177
361,novyy urgal,51.0736,132.5642,-20.02,95,100,1.48,RU,1706662177
362,inari,68.906,27.0288,34.0,75,100,22.55,FI,1706662178
363,praia da vitoria,38.7333,-27.0667,59.25,88,75,6.67,PT,1706662178
364,huarmey,-10.0681,-78.1522,76.14,79,100,8.68,PE,1706662178
365,walvis bay,-22.9575,14.5053,65.35,88,4,12.66,NA,1706662178
366,luau,-10.7073,22.2247,64.54,97,31,2.39,AO,1706662178
367,sumbawa besar,-8.5,117.4333,85.23,66,81,1.3,ID,1706662178
368,castillos,-34.1667,-53.8333,65.12,84,0,5.1,UY,1706662179
369,sinabang,2.4803,96.3801,81.05,81,94,4.5,ID,1706662179
370,boyalik,41.2634,28.6314,43.77,2,97,21.25,TR,1706662179
371,midvagur,62.0511,-7.1939,45.43,87,100,14.97,FO,1706662179
372,harpswell center,43.8018,-69.9842,17.47,84,38,3.04,US,1706662179
373,luderitz,-26.6481,15.1594,65.37,85,0,7.92,NA,1706662180
374,shumikha,55.2261,63.2961,5.34,97,100,7.63,RU,1706662180
375,kokshetau,53.2775,69.3883,-2.7,94,96,4.76,KZ,1706662180
376,pacific grove,36.6177,-121.9166,61.02,85,0,6.91,US,1706662180
377,fisterra,42.9049,-9.2629,50.02,77,100,5.77,ES,1706662180
378,waingapu,-9.6567,120.2641,83.64,66,17,3.8,ID,1706662181
379,gurun,5.8172,100.4738,74.98,83,100,3.94,MY,1706662181
380,hasaki,35.7333,140.8333,46.29,62,8,10.58,JP,1706662181
381,cururupu,-1.8283,-44.8683,76.73,94,39,3.56,BR,1706662181
382,saipan,15.1355,145.701,81.3,61,75,19.57,MP,1706662181
383,gemona,46.2794,13.1431,36.52,63,100,3.4,IT,1706662181
384,mogocha,53.7333,119.7667,-9.35,91,100,3.4,RU,1706662182
385,moyynkum,44.2914,72.9469,29.64,89,100,12.24,KZ,1706662182
386,longuenesse,50.734,2.2352,44.42,92,100,2.51,FR,1706662182
387,ha tien,10.3833,104.4833,76.66,79,97,5.99,VN,1706662182
388,alofi,-19.0595,-169.9187,82.49,85,100,16.08,NU,1706662182
389,constitucion,-35.3333,-72.4167,61.84,68,0,14.92,CL,1706662182
390,diego de almagro,-26.3667,-70.05,72.59,52,0,4.03,CL,1706662183
391,whakatane,-37.9585,176.9854,73.74,62,57,10.78,NZ,1706662183
392,coyhaique,-45.5752,-72.0662,62.55,59,75,5.75,CL,1706662183
393,sambava,-14.2667,50.1667,75.92,90,100,4.09,MG,1706662183
394,kamien pomorski,53.9685,14.7726,46.56,87,100,14.7,PL,1706662183
395,abepura,-2.6333,140.5833,85.01,70,40,6.91,ID,1706662183
396,al jawf,29.5,38.75,44.29,54,0,8.95,SA,1706662183
397,pangai,-19.8,-174.35,77.11,100,100,0.0,TO,1706662184
398,vila franca do campo,37.7167,-25.4333,57.61,89,69,5.28,PT,1706662184
399,rawson,-43.3002,-65.1023,76.48,42,0,7.05,AR,1706662184
400,brisas barra de suchiate,14.55,-92.2167,79.47,66,5,5.82,MX,1706662184
401,quiberon,47.4841,-3.1196,48.2,84,97,1.01,FR,1706662184
402,okhotsk,59.3833,143.3,-4.34,79,71,10.94,RU,1706662034
403,pervomayskoye,43.919,46.7102,25.05,84,81,7.9,RU,1706662185
404,port hedland,-20.3167,118.5667,87.85,70,8,6.91,AU,1706662185
405,dhidhdhoo,6.8833,73.1,82.02,74,42,10.11,MV,1706662185
406,leninskoye,41.7589,69.3864,26.38,97,100,8.34,KZ,1706662185
407,murzuq,25.9155,13.9184,45.66,57,0,9.8,LY,1706662185
408,mpanda,-6.3655,31.0409,63.82,97,100,3.02,TZ,1706662185
409,rio grande,-32.035,-52.0986,73.51,87,44,9.17,BR,1706662186
410,pikalevo,59.5183,34.1664,23.72,99,100,4.27,RU,1706662186
411,qamdo,31.1667,97.2333,11.52,53,77,6.02,CN,1706662186
412,nelson,-41.2833,173.2833,76.28,63,0,1.01,NZ,1706662186
413,ola,59.5833,151.2833,-11.87,83,15,6.46,RU,1706662187
414,mhamid,29.82,-5.72,55.92,42,100,7.76,MA,1706662187
415,maryville,35.7565,-83.9705,48.99,89,100,1.99,US,1706662005
416,daru,-9.0763,143.2092,84.06,74,100,8.57,PG,1706662187
417,zag,46.9441,99.165,-17.86,86,36,3.49,MN,1706662187
418,el granada,37.5027,-122.4694,65.98,72,0,10.36,US,1706662188
419,dwarka,22.2394,68.9678,71.46,79,100,8.97,IN,1706662188
420,benidorm,38.5382,-0.131,58.12,76,100,8.03,ES,1706662188
421,mthatha,-31.5889,28.7844,68.56,94,100,6.91,ZA,1706662188
422,lido di jesolo,45.5069,12.6469,33.78,62,100,3.6,IT,1706662188
423,barcelos,41.5388,-8.6151,57.34,75,100,4.54,PT,1706662188
424,callao,-12.0667,-77.15,81.72,69,100,10.36,PE,1706662189
425,port alfred,-33.5906,26.891,71.19,93,100,4.85,ZA,1706662189
426,jaisalmer,26.9147,70.9181,65.7,42,58,6.17,IN,1706662189
427,peace river,56.2501,-117.286,46.71,53,20,20.71,CA,1706662189
428,kailua-kona,19.6406,-155.9956,82.36,76,75,13.8,US,1706662189
429,acapulco de juarez,16.8634,-99.8901,78.24,78,100,5.23,MX,1706662189
430,kuta,-8.7233,115.1723,82.35,83,20,2.3,ID,1706662190
431,selfoss,63.9331,-20.9971,26.04,60,98,15.77,IS,1706662190
432,andovoranto,-18.95,49.1,73.0,86,43,9.75,MG,1706662190
433,porto novo,6.4965,2.6036,84.02,83,29,5.66,BJ,1706662190
434,nova sintra,14.8667,-24.7167,69.82,63,0,11.39,CV,1706662190
435,dingzhou,38.5131,114.9956,24.91,64,76,9.26,CN,1706662190
436,dampit,-8.2116,112.7493,80.44,70,10,0.96,ID,1706662191
437,lodwar,3.1191,35.5973,88.29,35,100,7.05,KE,1706662191
438,inarajan village,13.2736,144.7484,83.39,72,21,24.16,GU,1706662191
439,pocito,-31.6833,-68.5833,89.58,30,85,7.81,AR,1706662191
440,saynshand,44.8824,110.1163,-19.5,95,10,4.18,MN,1706662191
441,saarijarvi,62.7049,25.254,32.95,98,100,7.65,FI,1706662191
442,nuestra senora del rosario de caa cati,-27.7507,-57.6207,79.18,54,11,8.95,AR,1706662191
443,aswan,24.0934,32.907,49.3,46,0,6.91,EG,1706662192
444,holualoa,19.6228,-155.9522,78.64,76,75,13.8,US,1706662192
445,namibe,-15.1961,12.1522,76.64,78,32,5.32,AO,1706662192
446,snyder,32.7179,-100.9176,62.01,31,0,5.75,US,1706662192
447,pasan,22.85,82.2,53.74,54,100,0.43,IN,1706662192
448,baskale,38.0453,44.0172,6.93,93,96,1.7,TR,1706662192
449,at-bashi,41.1702,75.8106,13.8,95,100,0.54,KG,1706662193
450,sungai penuh,-2.0833,101.3833,69.21,90,87,2.68,ID,1706662193
451,lompoc,34.6391,-120.4579,59.92,87,75,11.5,US,1706662193
452,salinopolis,-0.6136,-47.3561,79.52,85,100,9.19,BR,1706662193
453,margate,51.3813,1.3862,44.91,90,100,3.2,GB,1706662062
454,changyon,38.2508,125.0961,37.53,49,18,2.51,KP,1706662193
455,byron bay,-28.65,153.6167,82.71,61,93,11.16,AU,1706662193
456,sao gabriel da cachoeira,-0.1303,-67.0892,79.3,83,86,2.55,BR,1706662194
457,boguchany,58.3814,97.4531,-25.15,100,13,1.99,RU,1706662194
458,chibougamau,49.9168,-74.3659,17.22,86,0,9.22,CA,1706662194
459,san patricio,28.017,-97.5169,64.35,57,100,6.64,US,1706662194
460,barra,-11.0894,-43.1417,75.11,77,46,2.68,BR,1706662194
461,poulsbo,47.7359,-122.6465,59.85,91,100,0.89,US,1706661898
462,santa ana de yacuma,-13.75,-65.4333,77.23,89,99,4.09,BO,1706662195
463,hornell,42.3279,-77.6611,33.8,91,100,4.0,US,1706662195
464,queenstown,-31.8976,26.8753,66.54,93,100,1.61,ZA,1706662195
465,majie,25.0333,102.6361,39.18,87,20,11.18,CN,1706662195
466,haiku-pauwela,20.9219,-156.3051,74.17,95,100,8.05,US,1706662195
467,alness,57.696,-4.2551,44.85,82,100,15.14,GB,1706662195
468,shenjiamen,29.9576,122.298,50.92,95,87,8.77,CN,1706662196
469,broome,42.2506,-75.833,31.69,89,100,8.05,US,1706662196
470,isabela,6.7085,121.9711,82.45,74,100,6.53,PH,1706662196
471,aksuat,48.7167,83.7,4.1,89,100,1.52,KZ,1706662196
472,afaahiti,-17.75,-149.2833,84.06,83,70,9.48,PF,1706662196
473,tchintabaraden,15.8969,5.7985,63.21,26,0,13.6,NE,1706662196
474,burang,30.25,81.1667,8.76,72,2,4.07,CN,1706662196
475,monrovia,6.3005,-10.7969,80.73,84,96,7.72,LR,1706662194
476,bouza,14.4229,6.0428,65.28,22,0,13.82,NE,1706662197
477,khmelnytskyi,49.4216,26.9965,23.4,89,56,5.39,UA,1706662197
478,brenham,30.1669,-96.3977,67.91,34,0,0.0,US,1706662197
479,kendal,54.3268,-2.7476,39.58,91,100,14.7,GB,1706662197
480,bandar lampung,-5.4254,105.258,76.53,92,100,4.16,ID,1706662197
481,touros,-5.1989,-35.4608,81.3,74,3,12.3,BR,1706662198
482,ciudad del carmen,18.6333,-91.8333,70.54,65,60,9.13,MX,1706662142
483,lumut,4.2323,100.6298,77.02,83,20,0.0,MY,1706662198
484,sejenane,37.0572,9.2381,45.55,85,14,6.67,TN,1706662198
485,freetown,8.484,-13.2299,80.31,83,20,8.05,SL,1706662198
486,usogorsk,63.4106,48.6872,17.67,97,99,6.64,RU,1706662198
487,port antonio,18.18,-76.4612,82.31,87,92,4.7,JM,1706662199
488,armidale,-30.5167,151.65,80.83,45,7,8.1,AU,1706662199
489,ambalangoda,6.2355,80.0538,77.18,86,21,3.91,LK,1706662199
490,undurkhaan,47.3194,110.6556,-25.15,99,45,4.23,MN,1706662199
491,ormond-by-the-sea,29.3491,-81.0665,58.08,78,0,0.0,US,1706662200
492,collinsville,38.6703,-89.9846,40.51,82,100,14.97,US,1706662200
493,mil'kovo,55.6078,37.7956,30.69,99,98,3.42,RU,1706662200
494,copala,16.65,-98.9833,77.65,83,99,3.06,MX,1706662200
495,kumeny,58.1089,49.9161,22.44,94,43,11.86,RU,1706662200
496,petrovsk-zabaykal'skiy,51.273,108.843,-22.41,100,41,2.08,RU,1706662157
497,saint-girons,42.9167,1.1667,41.92,85,7,3.83,FR,1706662201
498,kangding,30.0513,101.9603,34.9,64,0,7.67,CN,1706662201
499,khuzdar,27.7384,66.6434,52.72,53,83,6.76,PK,1706662201
500,smithers,54.7804,-127.1743,44.92,70,40,2.3,CA,1706662201
501,shemordan,56.1856,50.3972,25.41,92,20,13.69,RU,1706662202
502,taroa,8.7058,171.2275,80.29,85,100,20.04,MH,1706662202
503,jarny,49.1574,5.8788,45.95,95,100,1.01,FR,1706662202
504,hirara,24.8,125.2833,73.26,83,20,12.66,JP,1706662203
505,tokar,18.4254,37.729,72.19,64,99,10.63,SD,1706662203
506,turpan,42.9333,89.1667,28.62,49,100,4.14,CN,1706662203
507,mont-tremblant,46.1949,-74.6264,15.39,79,88,2.3,CA,1706662020
508,destin,30.3935,-86.4958,60.8,69,0,8.05,US,1706661907
509,sulak,43.2734,47.5146,32.13,78,52,11.07,RU,1706662204
510,puerto real,36.5282,-6.1901,57.36,77,0,11.5,ES,1706662204
511,daulatpur,26.5015,67.9706,63.95,34,100,5.61,PK,1706662204
512,nueva concepcion,14.2,-91.3,77.61,76,52,5.5,GT,1706662205
513,akjoujt,19.6969,-14.4164,67.82,10,0,11.79,MR,1706662205
514,knyaze-volkonskoye,48.4642,135.4567,-4.72,86,100,3.58,RU,1706662205
515,luorong,24.4058,109.6086,57.04,97,100,0.78,CN,1706662205
516,saudarkrokur,65.7461,-19.6394,24.19,84,100,12.53,IS,1706662205
517,vorkuta,67.5,64.0,8.35,96,100,10.51,RU,1706662206
518,mcalester,34.9334,-95.7697,62.69,42,20,3.44,US,1706662206
519,lata,40.1629,-8.3327,49.08,77,100,4.12,PT,1706662206
520,carira,-10.3608,-37.7011,74.16,73,0,9.42,BR,1706662206
521,karratha,-20.7377,116.8463,84.18,63,42,6.44,AU,1706662206
522,bhimunipatnam,17.8833,83.4333,67.51,82,5,3.31,IN,1706662207
523,cascais,38.6979,-9.4215,60.06,87,79,15.01,PT,1706662207
524,illizi,26.4833,8.4667,46.2,46,0,14.67,DZ,1706662207
525,padre bernardo,-15.35,-48.5,69.62,92,100,1.9,BR,1706662207
526,kamaishi,39.2667,141.8833,44.71,61,100,9.19,JP,1706662207
527,lospalos,-8.5186,127.0025,80.98,72,100,3.06,TL,1706662207
528,menaka,15.9182,2.4022,67.48,17,19,11.39,ML,1706662208
529,malanville,11.8685,3.3899,73.0,20,3,9.04,BJ,1706662208
530,al kharj,24.155,47.3346,68.58,45,96,7.76,SA,1706662208
531,richards bay,-28.783,32.0377,71.83,84,0,3.62,ZA,1706662208
532,taltal,-25.4,-70.4833,71.49,78,19,5.73,CL,1706662098
533,brookings,44.3114,-96.7984,39.2,87,0,6.91,US,1706662208
534,khandud,36.9513,72.318,18.41,82,100,3.71,AF,1706662209
535,pionerskiy,54.9508,20.2275,37.24,84,100,13.94,RU,1706662209
536,rajapur,25.3833,81.15,53.38,67,100,4.29,IN,1706662209
537,vorgashor,67.5833,63.95,8.35,95,100,11.07,RU,1706662209
538,takehara,34.3383,132.9167,46.44,70,75,4.61,JP,1706662209
539,fallon,39.4735,-118.7774,62.47,57,75,6.91,US,1706662210
540,lethem,3.3803,-59.7968,83.08,65,47,10.02,GY,1706662210
541,hithadhoo,-0.6,73.0833,81.41,73,16,4.25,MV,1706662210
542,trincomalee,8.5711,81.2335,79.45,84,25,9.62,LK,1706662210
543,severo-yeniseyskiy,60.3725,93.0408,-20.42,94,19,4.0,RU,1706662211
544,babayevo,59.3936,35.9371,15.8,97,92,3.76,RU,1706662211
545,buka,40.8108,69.1986,32.72,94,100,4.88,UZ,1706662211
546,bechar,31.6167,-2.2167,53.92,58,0,4.61,DZ,1706662211
547,poronaysk,49.2167,143.1167,3.38,87,60,2.37,RU,1706662211
548,itoman,26.1247,127.6694,75.09,78,20,17.27,JP,1706662212
549,dno,57.8277,29.9637,29.97,93,100,5.73,RU,1706662212
550,dul'durga,50.6761,113.5931,-12.06,85,20,3.38,RU,1706662212
551,mogadishu,2.0371,45.3438,78.33,78,100,18.88,SO,1706661971
552,tancacha,-32.2431,-63.9807,78.87,40,0,8.3,AR,1706662212
553,itaituba,-4.2761,-55.9836,76.28,99,100,1.83,BR,1706662213
554,cannonvale,-20.2833,148.7,85.39,66,96,4.61,AU,1706662213
555,alta,69.9689,23.2717,38.46,77,100,18.41,NO,1706662213
556,tari,12.4086,4.4914,71.94,18,21,12.73,NG,1706662213
557,mollendo,-17.0231,-72.0147,72.25,87,100,6.06,PE,1706662213
558,blaichach,47.5333,10.2667,43.12,61,91,4.03,DE,1706662214
559,gadzhiyevo,69.2551,33.3362,36.09,78,100,29.93,RU,1706662214
560,sonamura,23.4719,91.2664,59.0,50,100,1.92,IN,1706662214
561,solnechnyy,50.7214,136.6319,-6.81,94,99,2.1,RU,1706662214
562,gualeguaychu,-33.0094,-58.5172,79.32,44,0,6.96,AR,1706662214
563,mount pearl,47.5166,-52.7813,22.96,82,100,18.41,CA,1706662215
564,colombo,6.9319,79.8478,76.95,88,38,5.3,LK,1706662194
565,puerto baquerizo moreno,-0.9,-89.6,77.99,87,88,10.51,EC,1706662215
566,okha,53.5739,142.9478,-1.46,92,97,15.01,RU,1706662215
567,port macquarie,-31.4333,152.9167,80.89,69,76,8.48,AU,1706662122
568,andalgala,-27.5819,-66.3165,69.93,42,100,13.87,AR,1706662216
569,corte,42.25,9.25,40.96,67,100,2.91,FR,1706662216
570,mo i rana,66.3128,14.1428,36.32,92,100,0.0,NO,1706662216
571,san rafael del sur,11.8485,-86.4384,81.57,59,17,16.28,NI,1706662216
572,khatra,22.9833,86.85,62.37,64,100,6.15,IN,1706662217
573,sandersville,32.9815,-82.8101,49.44,60,0,6.4,US,1706662217
574,mananara,-16.1667,49.7667,75.27,83,100,5.55,MG,1706662217
575,mantua,45.1667,10.7833,33.04,72,100,2.82,IT,1706662217
576,angaur state,6.906,134.13,81.32,82,56,24.27,PW,1706662217
577,vanino,49.0869,140.2543,4.93,65,54,4.05,RU,1706662217
578,morehead city,34.7229,-76.726,47.98,84,20,5.01,US,1706662116
579,as sulayyil,20.4607,45.5779,68.25,54,68,4.47,SA,1706662218
580,el fuerte,26.4189,-108.6194,78.8,36,100,5.21,MX,1706662218
581,jayapura,-2.5333,140.7,85.39,74,100,3.85,ID,1706662218
582,putian,25.4394,119.0103,61.18,87,100,1.07,CN,1706662218
583,la'ie,21.6477,-157.9253,81.05,75,25,4.0,US,1706662219
584,gamba,-2.65,10.0,79.59,89,100,2.89,GA,1706662219
585,gurupi,-11.7292,-49.0686,75.15,90,100,2.8,BR,1706662219
586,quellon,-43.1167,-73.6167,60.1,84,100,6.67,CL,1706662219
587,el molar,40.7322,-3.5797,46.4,90,13,2.24,ES,1706662220
588,greenville,35.6127,-77.3663,45.12,75,0,3.44,US,1706661967
589,cole harbour,44.6724,-63.4751,19.71,81,75,9.22,CA,1706662220
590,novodvinsk,64.4165,40.8122,31.78,87,26,8.21,RU,1706662221
591,fort mcmurray,56.7268,-111.381,49.59,49,75,26.46,CA,1706662221
592,krasnoarmeysk,51.0239,45.6969,22.82,95,100,8.75,RU,1706662221
593,cullman,34.1748,-86.8436,57.85,58,100,6.91,US,1706662222
594,prince george,53.9166,-122.753,44.04,61,0,5.75,CA,1706662210
595,betare oya,5.6,14.0833,69.3,27,14,3.44,CM,1706662222
596,laughlin,35.1678,-114.573,78.28,30,0,2.13,US,1706662222
597,olyokminsk,60.3736,120.4264,-34.02,100,94,3.33,RU,1706662222
598,pemangkat,1.1667,108.9667,77.56,90,100,7.4,ID,1706662223
